[{"id":23988,"na":"Pronto Pizza","cs_phone":"415-921-1999","rds_info":{"id":186,"name":"delivery.com","logo":""},"services":{"deliver":{"time":30,"mino":10,"can":1}},"allow_tip":1,"allow_asap":1,"cu":["Pizza","Sandwiches"],"addr":"798 Eddy St, San Francisco, CA","full_addr":{"addr":"798 Eddy St","addr2":"","city":"San Francisco","state":"CA","postal_code":"94109-7806"},"city":"San Francisco","latitude":37.783153,"longitude":-122.41999,"del":30,"mino":10,"is_delivering":1},{"id":24024,"na":"Roxanne Cafe","cs_phone":"415-989-5555","rds_info":{"id":186,"name":"delivery.com","logo":""},"services":{"deliver":{"time":0,"mino":25,"can":1}},"allow_tip":1,"allow_asap":1,"cu":["Coffee House","Italian","Sandwiches"],"addr":"570 Powell St, San Francisco, CA","full_addr":{"addr":"570 Powell St","addr2":"","city":"San Francisco","state":"CA","postal_code":"94108-3835"},"city":"San Francisco","latitude":37.790017,"longitude":-122.40859,"del":0,"mino":25,"is_delivering":1},{"id":24063,"na":"Bamboo Catering","cs_phone":"415-775-3679","rds_info":{"id":186,"name":"delivery.com","logo":""},"services":{"deliver":{"time":105,"mino":50,"can":1}},"allow_tip":1,"allow_asap":1,"cu":["Chinese"],"addr":"1441 Polk St, San Francisco, CA","full_addr":{"addr":"1441 Polk St","addr2":"","city":"San Francisco","state":"CA","postal_code":"94109-4615"},"city":"San Francisco","latitude":37.790115,"longitude":-122.420753,"del":105,"mino":50,"is_delivering":1},{"id":24094,"na":"Extreme Pizza","cs_phone":"415-701-9000","rds_info":{"id":186,"name":"delivery.com","logo":""},"services":{"deliver":{"time":75,"mino":15,"can":1}},"allow_tip":1,"allow_asap":1,"cu":["Italian","Pizza"],"addr":"1062 Folsom St, San Francisco, CA","full_addr":{"addr":"1062 Folsom St","addr2":"","city":"San Francisco","state":"CA","postal_code":"94103-4023"},"city":"San Francisco","latitude":37.777499,"longitude":-122.40719,"del":75,"mino":15,"is_delivering":1},{"id":24099,"na":"Bamboo","cs_phone":"415-775-3679","rds_info":{"id":186,"name":"delivery.com","logo":""},"services":{"deliver":{"time":75,"mino":15,"can":1}},"allow_tip":1,"allow_asap":1,"cu":["Chinese"],"addr":"1441 Polk St, San Francisco, CA","full_addr":{"addr":"1441 Polk St","addr2":"","city":"San Francisco","state":"CA","postal_code":"94109-4615"},"city":"San Francisco","latitude":37.790115,"longitude":-122.420753,"del":75,"mino":15,"is_delivering":1},{"id":24101,"na":"Red Jade","cs_phone":"415-621-3020","rds_info":{"id":186,"name":"delivery.com","logo":""},"services":{"deliver":{"time":15,"mino":15,"can":1}},"allow_tip":1,"allow_asap":1,"cu":["Chinese"],"addr":"245 Church St, San Francisco, CA","full_addr":{"addr":"245 Church St","addr2":"","city":"San Francisco","state":"CA","postal_code":"94114-1310"},"city":"San Francisco","latitude":37.7668,"longitude":-122.428772,"del":15,"mino":15,"is_delivering":1},{"id":24103,"na":"India Clay Oven","cs_phone":"415-751-0505","rds_info":{"id":186,"name":"delivery.com","logo":""},"services":{"deliver":{"time":75,"mino":25,"can":1}},"allow_tip":1,"allow_asap":1,"cu":["Indian"],"addr":"2436 Clement St, San Francisco, CA","full_addr":{"addr":"2436 Clement St","addr2":"","city":"San Francisco","state":"CA","postal_code":"94121-1922"},"city":"San Francisco","latitude":37.78215,"longitude":-122.485443,"del":75,"mino":25,"is_delivering":1},{"id":24104,"na":"India Garden","cs_phone":"415-626-2798","rds_info":{"id":186,"name":"delivery.com","logo":""},"services":{"deliver":{"time":75,"mino":25,"can":1}},"allow_tip":1,"allow_asap":1,"cu":["Indian"],"addr":"1261 Folsom St, San Francisco, CA","full_addr":{"addr":"1261 Folsom St","addr2":"","city":"San Francisco","state":"CA","postal_code":"94103-3816"},"city":"San Francisco","latitude":37.774357,"longitude":-122.410751,"del":75,"mino":25,"is_delivering":1},{"id":24105,"na":"Tandoori Mahal","cs_phone":"415-951-0505","rds_info":{"id":186,"name":"delivery.com","logo":""},"services":{"deliver":{"time":75,"mino":25,"can":1}},"allow_tip":1,"allow_asap":1,"cu":["Indian"],"addr":"941 Kearny St, San Francisco, CA","full_addr":{"addr":"941 Kearny St","addr2":"","city":"San Francisco","state":"CA","postal_code":"94133-5130"},"city":"San Francisco","latitude":37.797005,"longitude":-122.405533,"del":75,"mino":25,"is_delivering":1},{"id":24131,"na":"Le Petit Marchet","cs_phone":"415-673-4040","rds_info":{"id":186,"name":"delivery.com","logo":""},"services":{"deliver":{"time":30,"mino":18,"can":1}},"allow_tip":1,"allow_asap":1,"cu":["Mediterranean","Pizza","Sandwiches"],"addr":"1732 Polk St, San Francisco, CA","full_addr":{"addr":"1732 Polk St","addr2":"","city":"San Francisco","state":"CA","postal_code":"94109-3617"},"city":"San Francisco","latitude":37.792444,"longitude":-122.42093,"del":30,"mino":18,"is_delivering":1},{"id":24137,"na":"Bang San Thai Cuisine","cs_phone":"415-928-2772","rds_info":{"id":186,"name":"delivery.com","logo":""},"services":{"deliver":{"time":30,"mino":15,"can":0}},"allow_tip":1,"allow_asap":1,"cu":["Kosher","Thai","Vegetarian"],"addr":"791 Ofarrell St, San Francisco, CA","full_addr":{"addr":"791 Ofarrell St","addr2":"","city":"San Francisco","state":"CA","postal_code":"94109-7114"},"city":"San Francisco","latitude":37.785283,"longitude":-122.41713,"del":30,"mino":15,"is_delivering":0},{"id":24282,"na":"Cybelle's Pizza","cs_phone":"415-885-6830","rds_info":{"id":186,"name":"delivery.com","logo":""},"services":{"deliver":{"time":75,"mino":15,"can":1}},"allow_tip":1,"allow_asap":1,"cu":["Italian","Pizza"],"addr":"1000 Bush St, San Francisco, CA","full_addr":{"addr":"1000 Bush St","addr2":"","city":"San Francisco","state":"CA","postal_code":"94109-6214"},"city":"San Francisco","latitude":37.789577,"longitude":-122.414589,"del":75,"mino":15,"is_delivering":1},{"id":24314,"na":"Go Getters Pizza","cs_phone":"415-621-1401","rds_info":{"id":186,"name":"delivery.com","logo":""},"services":{"deliver":{"time":75,"mino":20,"can":1}},"allow_tip":1,"allow_asap":1,"cu":["Italian","Pizza"],"addr":"100 Gough St, San Francisco, CA","full_addr":{"addr":"100 Gough St","addr2":"","city":"San Francisco","state":"CA","postal_code":"94102-5904"},"city":"San Francisco","latitude":37.774345,"longitude":-122.422467,"del":75,"mino":20,"is_delivering":1},{"id":24385,"na":"Ratcha Thai","cs_phone":"415-291-8089","rds_info":{"id":186,"name":"delivery.com","logo":""},"services":{"deliver":{"time":30,"mino":15,"can":1}},"allow_tip":1,"allow_asap":1,"cu":["Thai"],"addr":"631 Broadway, San Francisco, CA","full_addr":{"addr":"631 Broadway","addr2":"","city":"San Francisco","state":"CA","postal_code":"94133-4405"},"city":"San Francisco","latitude":37.797713,"longitude":-122.407843,"del":30,"mino":15,"is_delivering":1},{"id":24529,"na":"Panera Bread","cs_phone":"415-777-2080","rds_info":{"id":186,"name":"delivery.com","logo":""},"services":{"deliver":{"time":1425,"mino":100,"can":1}},"allow_tip":1,"allow_asap":1,"cu":["Sandwiches","Soup","Bagelry"],"addr":"301 King St, San Francisco, CA","full_addr":{"addr":"301 King St","addr2":"","city":"San Francisco","state":"CA","postal_code":"94158-1606"},"city":"San Francisco","latitude":37.776234,"longitude":-122.393997,"del":1425,"mino":100,"is_delivering":1},{"id":24571,"na":"Ken's Kitchen","cs_phone":"415-351-2188","rds_info":{"id":186,"name":"delivery.com","logo":""},"services":{"deliver":{"time":30,"mino":10,"can":1}},"allow_tip":1,"allow_asap":1,"cu":["Chinese"],"addr":"700 Polk St, San Francisco, CA","full_addr":{"addr":"700 Polk St","addr2":"","city":"San Francisco","state":"CA","postal_code":"94109-7812"},"city":"San Francisco","latitude":37.783594,"longitude":-122.419285,"del":30,"mino":10,"is_delivering":1},{"id":24680,"na":"Sudachi Sushi","cs_phone":"415-931-6951","rds_info":{"id":186,"name":"delivery.com","logo":""},"services":{"deliver":{"time":30,"mino":20,"can":0}},"allow_tip":1,"allow_asap":1,"addr":"1217 Sutter St, San Francisco, CA","full_addr":{"addr":"1217 Sutter St","addr2":"","city":"San Francisco","state":"CA","postal_code":"94109-5516"},"city":"San Francisco","latitude":37.787591,"longitude":-122.42089,"del":30,"mino":20,"is_delivering":0},{"id":24713,"na":"Thai Thai Gourmet Thai Food","cs_phone":"415-433-2222","rds_info":{"id":186,"name":"delivery.com","logo":""},"services":{"deliver":{"time":30,"mino":15,"can":1}},"allow_tip":1,"allow_asap":1,"cu":["Thai"],"addr":"653 Clay St, San Francisco, CA","full_addr":{"addr":"653 Clay St","addr2":"","city":"San Francisco","state":"CA","postal_code":"94111-2501"},"city":"San Francisco","latitude":37.794561,"longitude":-122.403984,"del":30,"mino":15,"is_delivering":1},{"id":24734,"na":"Estia","cs_phone":"415-433-1433","rds_info":{"id":186,"name":"delivery.com","logo":""},"services":{"deliver":{"time":30,"mino":15,"can":1}},"allow_tip":1,"allow_asap":1,"cu":["Greek"],"addr":"1224 Grant Ave, San Francisco, CA","full_addr":{"addr":"1224 Grant Ave","addr2":"","city":"San Francisco","state":"CA","postal_code":"94133-3910"},"city":"San Francisco","latitude":37.798467,"longitude":-122.407134,"del":30,"mino":15,"is_delivering":1},{"id":25069,"na":"Cesario's","cs_phone":"415-441-9898","rds_info":{"id":186,"name":"delivery.com","logo":""},"services":{"deliver":{"time":30,"mino":25,"can":1}},"allow_tip":1,"allow_asap":1,"cu":["Italian"],"addr":"601 Sutter St, San Francisco, CA","full_addr":{"addr":"601 Sutter St","addr2":"","city":"San Francisco","state":"CA","postal_code":"94102-1017"},"city":"San Francisco","latitude":37.7889,"longitude":-122.411114,"del":30,"mino":25,"is_delivering":1},{"id":25317,"na":"Clay Oven Indian Restaurant","cs_phone":"415-731-2400","rds_info":{"id":186,"name":"delivery.com","logo":""},"services":{"deliver":{"time":30,"mino":25,"can":1}},"allow_tip":1,"allow_asap":1,"cu":["Indian"],"addr":"385 W Portal Ave, San Francisco, CA","full_addr":{"addr":"385 W Portal Ave","addr2":"","city":"San Francisco","state":"CA","postal_code":"94127-1411"},"city":"San Francisco","latitude":37.737291,"longitude":-122.469828,"del":30,"mino":25,"is_delivering":1},{"id":25576,"na":"A Taste of Vietnam: Noodle Bar & Grill","cs_phone":"415-291-8089","rds_info":{"id":186,"name":"delivery.com","logo":""},"services":{"deliver":{"time":30,"mino":15,"can":1}},"allow_tip":1,"allow_asap":1,"cu":["Vietnamese"],"addr":"629 Broadway, San Francisco, CA","full_addr":{"addr":"629 Broadway","addr2":"","city":"San Francisco","state":"CA","postal_code":"94133-4405"},"city":"San Francisco","latitude":37.797705,"longitude":-122.407847,"del":30,"mino":15,"is_delivering":1},{"id":25627,"na":"Clay Oven on Haight","cs_phone":"415-751-0404","rds_info":{"id":186,"name":"delivery.com","logo":""},"services":{"deliver":{"time":30,"mino":25,"can":1}},"allow_tip":1,"allow_asap":1,"cu":["Indian"],"addr":"231 Fillmore St, San Francisco, CA","full_addr":{"addr":"231 Fillmore St","addr2":"","city":"San Francisco","state":"CA","postal_code":"94117-3536"},"city":"San Francisco","latitude":37.771874,"longitude":-122.430436,"del":30,"mino":25,"is_delivering":1},{"id":25748,"na":"Ozone Thai Restaurant & Lounge","cs_phone":"415-536-3266","rds_info":{"id":186,"name":"delivery.com","logo":""},"services":{"deliver":{"time":30,"mino":15,"can":1}},"allow_tip":1,"allow_asap":1,"cu":["Thai"],"addr":"598 2nd St, San Francisco, CA","full_addr":{"addr":"598 2nd St","addr2":"","city":"San Francisco","state":"CA","postal_code":"94107-1418"},"city":"San Francisco","latitude":37.78226,"longitude":-122.39265,"del":30,"mino":15,"is_delivering":1},{"id":25754,"na":"Bellissimo Pizza","cs_phone":"415-885-4445","rds_info":{"id":186,"name":"delivery.com","logo":""},"services":{"deliver":{"time":30,"mino":12,"can":1}},"allow_tip":1,"allow_asap":1,"cu":["Italian","Pizza"],"addr":"920 Sutter St, San Francisco, CA","full_addr":{"addr":"920 Sutter St","addr2":"","city":"San Francisco","state":"CA","postal_code":"94109-6025"},"city":"San Francisco","latitude":37.788321,"longitude":-122.416083,"del":30,"mino":12,"is_delivering":1},{"id":25774,"na":"Al Hamra","cs_phone":"415-621-3935","rds_info":{"id":186,"name":"delivery.com","logo":""},"services":{"deliver":{"time":30,"mino":40,"can":1}},"allow_tip":1,"allow_asap":1,"cu":["Indian","Kosher","Mediterranean","Middle Eastern"],"addr":"3083 16th St, San Francisco, CA","full_addr":{"addr":"3083 16th St","addr2":"","city":"San Francisco","state":"CA","postal_code":"94103-3420"},"city":"San Francisco","latitude":37.764856,"longitude":-122.42147,"del":30,"mino":40,"is_delivering":1},{"id":25775,"na":"Naan N' Curry","cs_phone":"415-346-1443","rds_info":{"id":186,"name":"delivery.com","logo":""},"services":{"deliver":{"time":30,"mino":20,"can":1}},"allow_tip":1,"allow_asap":1,"cu":["Indian","Middle Eastern"],"addr":"336 Ofarrell St, San Francisco, CA","full_addr":{"addr":"336 Ofarrell St","addr2":"","city":"San Francisco","state":"CA","postal_code":"94102-2117"},"city":"San Francisco","latitude":37.786156,"longitude":-122.41057,"del":30,"mino":20,"is_delivering":1},{"id":25781,"na":"Tao Yin","cs_phone":"415-285-4926","rds_info":{"id":186,"name":"delivery.com","logo":""},"services":{"deliver":{"time":30,"mino":15,"can":1}},"allow_tip":1,"allow_asap":1,"cu":["Chinese"],"addr":"3515 20th St, San Francisco, CA","full_addr":{"addr":"3515 20th St","addr2":"","city":"San Francisco","state":"CA","postal_code":"94110-2416"},"city":"San Francisco","latitude":37.758548,"longitude":-122.41943,"del":30,"mino":15,"is_delivering":1},{"id":25793,"na":"Jasmine Tea House","cs_phone":"415-826-6288","rds_info":{"id":186,"name":"delivery.com","logo":""},"services":{"deliver":{"time":30,"mino":10,"can":1}},"allow_tip":1,"allow_asap":1,"cu":["Chinese"],"addr":"3253 Mission St, San Francisco, CA","full_addr":{"addr":"3253 Mission St","addr2":"","city":"San Francisco","state":"CA","postal_code":"94110-5006"},"city":"San Francisco","latitude":37.744685,"longitude":-122.420451,"del":30,"mino":10,"is_delivering":1},{"id":25824,"na":"7 Mission Restaurant","cs_phone":"415-861-3298","rds_info":{"id":186,"name":"delivery.com","logo":""},"services":{"deliver":{"time":30,"mino":15,"can":1}},"allow_tip":1,"allow_asap":1,"cu":["Chinese","Vietnamese"],"addr":"150 7th St, San Francisco, CA","full_addr":{"addr":"150 7th St","addr2":"","city":"San Francisco","state":"CA","postal_code":"94103-2833"},"city":"San Francisco","latitude":37.778625,"longitude":-122.410263,"del":30,"mino":15,"is_delivering":1},{"id":25834,"na":"D'Urso Italian Delicatessen","cs_phone":"415-369-9442","rds_info":{"id":186,"name":"delivery.com","logo":""},"services":{"deliver":{"time":30,"mino":30,"can":1}},"allow_tip":1,"allow_asap":1,"cu":["Italian","Sandwiches"],"addr":"236 Townsend St, San Francisco, CA","full_addr":{"addr":"236 Townsend St","addr2":"","city":"San Francisco","state":"CA","postal_code":"94107-1720"},"city":"San Francisco","latitude":37.778106,"longitude":-122.39374,"del":30,"mino":30,"is_delivering":1},{"id":25853,"na":"AK Subs","cs_phone":"415-241-9600","rds_info":{"id":186,"name":"delivery.com","logo":""},"services":{"deliver":{"time":30,"mino":15,"can":1}},"allow_tip":1,"allow_asap":1,"cu":["American","Sandwiches"],"addr":"397 8th St, San Francisco, CA","full_addr":{"addr":"397 8th St","addr2":"","city":"San Francisco","state":"CA","postal_code":"94103-4423"},"city":"San Francisco","latitude":37.773977,"longitude":-122.408794,"del":30,"mino":15,"is_delivering":1},{"id":25869,"na":"Don Agapito's","cs_phone":"415-863-4149","rds_info":{"id":186,"name":"delivery.com","logo":""},"services":{"deliver":{"time":30,"mino":20,"can":1}},"allow_tip":1,"allow_asap":1,"cu":["Mexican","Sandwiches","Latin","Spanish"],"addr":"100 Gough St, San Francisco, CA","full_addr":{"addr":"100 Gough St","addr2":"","city":"San Francisco","state":"CA","postal_code":"94102-5904"},"city":"San Francisco","latitude":37.774345,"longitude":-122.422467,"del":30,"mino":20,"is_delivering":1},{"id":25879,"na":"Grand Pu Bah Restaurant","cs_phone":"415-255-8188","rds_info":{"id":186,"name":"delivery.com","logo":""},"services":{"deliver":{"time":30,"mino":30,"can":1}},"allow_tip":1,"allow_asap":1,"cu":["Seafood","Thai","Vegetarian"],"addr":"88 Division St, San Francisco, CA","full_addr":{"addr":"88 Division St","addr2":"","city":"San Francisco","state":"CA","postal_code":"94103-5230"},"city":"San Francisco","latitude":37.768671,"longitude":-122.403401,"del":30,"mino":30,"is_delivering":1},{"id":25904,"na":"Sunrise Deli","cs_phone":"415-495-9999","rds_info":{"id":186,"name":"delivery.com","logo":""},"services":{"deliver":{"time":30,"mino":30,"can":1}},"allow_tip":1,"allow_asap":1,"cu":["Mediterranean"],"addr":"54 2nd St, San Francisco, CA","full_addr":{"addr":"54 2nd St","addr2":"","city":"San Francisco","state":"CA","postal_code":"94105-3440"},"city":"San Francisco","latitude":37.788607,"longitude":-122.400552,"del":30,"mino":30,"is_delivering":1},{"id":25906,"na":"Tokyo Express","cs_phone":"415-348-1732","rds_info":{"id":186,"name":"delivery.com","logo":""},"services":{"deliver":{"time":30,"mino":50,"can":1}},"allow_tip":1,"allow_asap":1,"addr":"160 Spear St, San Francisco, CA","full_addr":{"addr":"160 Spear St","addr2":"","city":"San Francisco","state":"CA","postal_code":"94105-1503"},"city":"San Francisco","latitude":37.791746,"longitude":-122.39324,"del":30,"mino":50,"is_delivering":1},{"id":25907,"na":"Tokyo Express Catering","cs_phone":"415-348-1732","rds_info":{"id":186,"name":"delivery.com","logo":""},"services":{"deliver":{"time":1425,"mino":50,"can":1}},"allow_tip":1,"allow_asap":1,"addr":"160 Spear St, San Francisco, CA","full_addr":{"addr":"160 Spear St","addr2":"","city":"San Francisco","state":"CA","postal_code":"94105-1503"},"city":"San Francisco","latitude":37.791746,"longitude":-122.39324,"del":1425,"mino":50,"is_delivering":1},{"id":25919,"na":"Rosamunde Sausage Grill","cs_phone":"415-970-9015","rds_info":{"id":186,"name":"delivery.com","logo":""},"services":{"deliver":{"time":30,"mino":15,"can":1}},"allow_tip":1,"allow_asap":1,"cu":["Burgers","Sandwiches"],"addr":"2832 Mission St, San Francisco, CA","full_addr":{"addr":"2832 Mission St","addr2":"","city":"San Francisco","state":"CA","postal_code":"94110-3908"},"city":"San Francisco","latitude":37.751527,"longitude":-122.418389,"del":30,"mino":15,"is_delivering":1},{"id":25950,"na":"Europa Express Catering","cs_phone":"415-759-6500","rds_info":{"id":186,"name":"delivery.com","logo":""},"services":{"deliver":{"time":2865,"mino":50,"can":1}},"allow_tip":1,"allow_asap":1,"cu":["Sandwiches","Russian"],"addr":"1342 Irving St, San Francisco, CA","full_addr":{"addr":"1342 Irving St","addr2":"","city":"San Francisco","state":"CA","postal_code":"94122-2014"},"city":"San Francisco","latitude":37.763798,"longitude":-122.472249,"del":2865,"mino":50,"is_delivering":1},{"id":25952,"na":"Sunrise Deli Catering","cs_phone":"415-495-9999","rds_info":{"id":186,"name":"delivery.com","logo":""},"services":{"deliver":{"time":1425,"mino":30,"can":1}},"allow_tip":1,"allow_asap":1,"cu":["Mediterranean"],"addr":"54 2nd St, San Francisco, CA","full_addr":{"addr":"54 2nd St","addr2":"","city":"San Francisco","state":"CA","postal_code":"94105-3440"},"city":"San Francisco","latitude":37.788607,"longitude":-122.400552,"del":1425,"mino":30,"is_delivering":1},{"id":26054,"na":"Tsing Tao 4","cs_phone":"415-333-9997","rds_info":{"id":186,"name":"delivery.com","logo":""},"services":{"deliver":{"time":30,"mino":15,"can":1}},"allow_tip":1,"allow_asap":1,"cu":["Chinese","Seafood","Vegetarian"],"addr":"4683 Mission St, San Francisco, CA","full_addr":{"addr":"4683 Mission St","addr2":"","city":"San Francisco","state":"CA","postal_code":"94112-2605"},"city":"San Francisco","latitude":37.724005,"longitude":-122.435332,"del":30,"mino":15,"is_delivering":1},{"id":26076,"na":"Europa Express Grocery","cs_phone":"415-759-6500","rds_info":{"id":186,"name":"delivery.com","logo":""},"services":{"deliver":{"time":30,"mino":50,"can":1}},"allow_tip":1,"allow_asap":1,"addr":"1342 Irving St, San Francisco, CA","full_addr":{"addr":"1342 Irving St","addr2":"","city":"San Francisco","state":"CA","postal_code":"94122-2014"},"city":"San Francisco","latitude":37.763798,"longitude":-122.472249,"del":30,"mino":50,"is_delivering":1},{"id":26081,"na":"Pranzo Pizza","cs_phone":"415-431-1999","rds_info":{"id":186,"name":"delivery.com","logo":""},"services":{"deliver":{"time":30,"mino":12,"can":1}},"allow_tip":1,"allow_asap":1,"cu":["Italian","Pizza"],"addr":"32 6th St, San Francisco, CA","full_addr":{"addr":"32 6th St","addr2":"","city":"San Francisco","state":"CA","postal_code":"94103-1609"},"city":"San Francisco","latitude":37.78156,"longitude":-122.409482,"del":30,"mino":12,"is_delivering":1},{"id":26180,"na":"Rosamunde Sausage Grill","cs_phone":"415-970-9015","rds_info":{"id":186,"name":"delivery.com","logo":""},"services":{"deliver":{"time":1425,"mino":75,"can":1}},"allow_tip":1,"allow_asap":1,"cu":["Burgers","Sandwiches"],"addr":"2832 Mission St, San Francisco, CA","full_addr":{"addr":"2832 Mission St","addr2":"","city":"San Francisco","state":"CA","postal_code":"94110-3908"},"city":"San Francisco","latitude":37.751527,"longitude":-122.418389,"del":1425,"mino":75,"is_delivering":1},{"id":26302,"na":"La Perla Pizza, Kabob and Rotisserie","cs_phone":"415-447-7400","rds_info":{"id":186,"name":"delivery.com","logo":""},"services":{"deliver":{"time":30,"mino":12,"can":1}},"allow_tip":1,"allow_asap":1,"cu":["Mediterranean","Pizza","Sandwiches"],"addr":"39 Taylor St, San Francisco, CA","full_addr":{"addr":"39 Taylor St","addr2":"","city":"San Francisco","state":"CA","postal_code":"94102-3916"},"city":"San Francisco","latitude":37.782839,"longitude":-122.410713,"del":30,"mino":12,"is_delivering":1},{"id":26361,"na":"King Lee's Chinese Restaurant","cs_phone":"415-563-8882","rds_info":{"id":186,"name":"delivery.com","logo":""},"services":{"deliver":{"time":30,"mino":18,"can":1}},"allow_tip":1,"allow_asap":1,"cu":["Chinese"],"addr":"1426 Fillmore St, San Francisco, CA","full_addr":{"addr":"1426 Fillmore St","addr2":"","city":"San Francisco","state":"CA","postal_code":"94115-4115"},"city":"San Francisco","latitude":37.782671,"longitude":-122.43248,"del":30,"mino":18,"is_delivering":1},{"id":26582,"na":"Sushi Boom","cs_phone":"415-447-8992","rds_info":{"id":186,"name":"delivery.com","logo":""},"services":{"deliver":{"time":30,"mino":30,"can":0}},"allow_tip":1,"allow_asap":1,"addr":"1520 Fillmore St, San Francisco, CA","full_addr":{"addr":"1520 Fillmore St","addr2":"","city":"San Francisco","state":"CA","postal_code":"94115-3516"},"city":"San Francisco","latitude":37.784169,"longitude":-122.432874,"del":30,"mino":30,"is_delivering":0},{"id":26612,"na":"Naan 'n' Curry","cs_phone":"415-664-7225","rds_info":{"id":186,"name":"delivery.com","logo":""},"services":{"deliver":{"time":30,"mino":25,"can":1}},"allow_tip":1,"allow_asap":1,"cu":["Indian","Middle Eastern","Fusion"],"addr":"642 Irving St, San Francisco, CA","full_addr":{"addr":"642 Irving St","addr2":"","city":"San Francisco","state":"CA","postal_code":"94122-2402"},"city":"San Francisco","latitude":37.764131,"longitude":-122.464746,"del":30,"mino":25,"is_delivering":1},{"id":26621,"na":"Ah Lin","cs_phone":"415-922-5279","rds_info":{"id":186,"name":"delivery.com","logo":""},"services":{"deliver":{"time":30,"mino":15,"can":1}},"allow_tip":1,"allow_asap":1,"cu":["Chinese"],"addr":"1634 Bush St, San Francisco, CA","full_addr":{"addr":"1634 Bush St","addr2":"","city":"San Francisco","state":"CA","postal_code":"94109-5308"},"city":"San Francisco","latitude":37.788203,"longitude":-122.424463,"del":30,"mino":15,"is_delivering":1},{"id":26661,"na":"Golden Kim Tar Restaurant","cs_phone":"415-346-8889","rds_info":{"id":186,"name":"delivery.com","logo":""},"services":{"deliver":{"time":30,"mino":15,"can":1}},"allow_tip":1,"allow_asap":1,"cu":["Chinese"],"addr":"434 Larkin St, San Francisco, CA","full_addr":{"addr":"434 Larkin St","addr2":"","city":"San Francisco","state":"CA","postal_code":"94102-3607"},"city":"San Francisco","latitude":37.781947,"longitude":-122.417255,"del":30,"mino":15,"is_delivering":1},{"id":26673,"na":"Modern Thai","cs_phone":"415-922-8424","rds_info":{"id":186,"name":"delivery.com","logo":""},"services":{"deliver":{"time":30,"mino":35,"can":1}},"allow_tip":1,"allow_asap":1,"cu":["Thai"],"addr":"1247 Polk St, San Francisco, CA","full_addr":{"addr":"1247 Polk St","addr2":"","city":"San Francisco","state":"CA","postal_code":"94109-5543"},"city":"San Francisco","latitude":37.78848,"longitude":-122.420304,"del":30,"mino":35,"is_delivering":1},{"id":27337,"na":"Showdogs","cs_phone":"415-558-9560","rds_info":{"id":186,"name":"delivery.com","logo":""},"services":{"deliver":{"time":30,"mino":20,"can":1}},"allow_tip":1,"allow_asap":1,"cu":["American","Burgers","Healthy"],"addr":"1020 Market St, San Francisco, CA","full_addr":{"addr":"1020 Market St","addr2":"","city":"San Francisco","state":"CA","postal_code":"94102-3923"},"city":"San Francisco","latitude":37.782146,"longitude":-122.410741,"del":30,"mino":20,"is_delivering":1},{"id":27446,"na":"Irving Pizza - Geary Blvd","cs_phone":"415-771-0110","rds_info":{"id":186,"name":"delivery.com","logo":""},"services":{"deliver":{"time":30,"mino":10,"can":1}},"allow_tip":1,"allow_asap":1,"cu":["Pizza","Sandwiches"],"addr":"928 Geary St, San Francisco, CA","full_addr":{"addr":"928 Geary St","addr2":"","city":"San Francisco","state":"CA","postal_code":"94109-7002"},"city":"San Francisco","latitude":37.786043,"longitude":-122.418983,"del":30,"mino":10,"is_delivering":1},{"id":27652,"na":"L'acajou","cs_phone":"415-626-3683","rds_info":{"id":186,"name":"delivery.com","logo":""},"services":{"deliver":{"time":30,"mino":30,"can":1}},"allow_tip":1,"allow_asap":1,"cu":["Coffee House","French"],"addr":"498 9th St, San Francisco, CA","full_addr":{"addr":"498 9th St","addr2":"","city":"San Francisco","state":"CA","postal_code":"94103-4411"},"city":"San Francisco","latitude":37.77229,"longitude":-122.408424,"del":30,"mino":30,"is_delivering":1},{"id":27654,"na":"Fresco Pizza & Shawarma","cs_phone":"415-440-4410","rds_info":{"id":186,"name":"delivery.com","logo":""},"services":{"deliver":{"time":30,"mino":12,"can":1}},"allow_tip":1,"allow_asap":1,"cu":["Italian","Mediterranean","Pizza"],"addr":"1338 Polk St, San Francisco, CA","full_addr":{"addr":"1338 Polk St","addr2":"","city":"San Francisco","state":"CA","postal_code":"94109-4618"},"city":"San Francisco","latitude":37.789406,"longitude":-122.420462,"del":30,"mino":12,"is_delivering":1},{"id":27714,"na":"Curry Boyzz","cs_phone":"415-255-6565","rds_info":{"id":186,"name":"delivery.com","logo":""},"services":{"deliver":{"time":30,"mino":10,"can":0}},"allow_tip":1,"allow_asap":1,"cu":["Indian","Seafood"],"addr":"4238 18th St, San Francisco, CA","full_addr":{"addr":"4238 18th St","addr2":"","city":"San Francisco","state":"CA","postal_code":"94114-2410"},"city":"San Francisco","latitude":37.760806,"longitude":-122.436675,"del":30,"mino":10,"is_delivering":0},{"id":27822,"na":"Bento House","cs_phone":"415-931-9988","rds_info":{"id":186,"name":"delivery.com","logo":""},"services":{"deliver":{"time":30,"mino":20,"can":1}},"allow_tip":1,"allow_asap":1,"cu":["Sushi"],"addr":"448 Larkin St, San Francisco, CA","full_addr":{"addr":"448 Larkin St","addr2":"","city":"San Francisco","state":"CA","postal_code":"94102-3607"},"city":"San Francisco","latitude":37.781947,"longitude":-122.41725,"del":30,"mino":20,"is_delivering":1},{"id":27978,"na":"Sutter Pub","cs_phone":"415-400-5840","rds_info":{"id":186,"name":"delivery.com","logo":""},"services":{"deliver":{"time":30,"mino":25,"can":1}},"allow_tip":1,"allow_asap":1,"cu":["American"],"addr":"700 Sutter St, San Francisco, CA","full_addr":{"addr":"700 Sutter St","addr2":"","city":"San Francisco","state":"CA","postal_code":"94109-6417"},"city":"San Francisco","latitude":37.788764,"longitude":-122.412782,"del":30,"mino":25,"is_delivering":1},{"id":28236,"na":"Paris Pizza & Grill","cs_phone":"415-989-9700","rds_info":{"id":186,"name":"delivery.com","logo":""},"services":{"deliver":{"time":30,"mino":12,"can":1}},"allow_tip":1,"allow_asap":1,"cu":["Italian","Pizza"],"addr":"448 Broadway, San Francisco, CA","full_addr":{"addr":"448 Broadway","addr2":"","city":"San Francisco","state":"CA","postal_code":"94133-4515"},"city":"San Francisco","latitude":37.798136,"longitude":-122.404754,"del":30,"mino":12,"is_delivering":1},{"id":28258,"na":"Green Garden Hunan","cs_phone":"415-392-1826","rds_info":{"id":186,"name":"delivery.com","logo":""},"services":{"deliver":{"time":30,"mino":20,"can":1}},"allow_tip":1,"allow_asap":1,"cu":["Chinese"],"addr":"434 Broadway, San Francisco, CA","full_addr":{"addr":"434 Broadway","addr2":"","city":"San Francisco","state":"CA","postal_code":"94133-4515"},"city":"San Francisco","latitude":37.798136,"longitude":-122.404754,"del":30,"mino":20,"is_delivering":1},{"id":28294,"na":"Frjtz","cs_phone":"415-863-8272","rds_info":{"id":186,"name":"delivery.com","logo":""},"services":{"deliver":{"time":30,"mino":10,"can":1}},"allow_tip":1,"allow_asap":1,"cu":["French"],"addr":"590 Valencia St, San Francisco, CA","full_addr":{"addr":"590 Valencia St","addr2":"","city":"San Francisco","state":"CA","postal_code":"94110-1115"},"city":"San Francisco","latitude":37.764107,"longitude":-122.421837,"del":30,"mino":10,"is_delivering":1},{"id":28295,"na":"Navin Thai Restaurant","cs_phone":"415-274-9948","rds_info":{"id":186,"name":"delivery.com","logo":""},"services":{"deliver":{"time":30,"mino":15,"can":1}},"allow_tip":1,"allow_asap":1,"cu":["Thai"],"addr":"1059 Powell St, San Francisco, CA","full_addr":{"addr":"1059 Powell St","addr2":"","city":"San Francisco","state":"CA","postal_code":"94108-1513"},"city":"San Francisco","latitude":37.793939,"longitude":-122.409581,"del":30,"mino":15,"is_delivering":1},{"id":28303,"na":"Rico's","cs_phone":"415-928-5404","rds_info":{"id":186,"name":"delivery.com","logo":""},"services":{"deliver":{"time":30,"mino":20,"can":1}},"allow_tip":1,"allow_asap":1,"cu":["Mexican"],"addr":"418 Beach St, San Francisco, CA","full_addr":{"addr":"418 Beach St","addr2":"","city":"San Francisco","state":"CA","postal_code":"94133-1102"},"city":"San Francisco","latitude":37.807229,"longitude":-122.41647,"del":30,"mino":20,"is_delivering":1},{"id":28323,"na":"Tandoor on Haight","cs_phone":"415-255-1625","rds_info":{"id":186,"name":"delivery.com","logo":""},"services":{"deliver":{"time":30,"mino":20,"can":0}},"allow_tip":1,"allow_asap":1,"cu":["Indian"],"addr":"525 Haight St, San Francisco, CA","full_addr":{"addr":"525 Haight St","addr2":"","city":"San Francisco","state":"CA","postal_code":"94117-3406"},"city":"San Francisco","latitude":37.771976,"longitude":-122.43086,"del":30,"mino":20,"is_delivering":0},{"id":28324,"na":"City Chopsticks","cs_phone":"415-563-1085","rds_info":{"id":186,"name":"delivery.com","logo":""},"services":{"deliver":{"time":30,"mino":20,"can":1}},"allow_tip":1,"allow_asap":1,"cu":["Chinese"],"addr":"883 Bush St, San Francisco, CA","full_addr":{"addr":"883 Bush St","addr2":"","city":"San Francisco","state":"CA","postal_code":"94108-3312"},"city":"San Francisco","latitude":37.789803,"longitude":-122.411504,"del":30,"mino":20,"is_delivering":1},{"id":28325,"na":"Cello","cs_phone":"415-357-1122","rds_info":{"id":186,"name":"delivery.com","logo":""},"services":{"deliver":{"time":30,"mino":30,"can":1}},"allow_tip":1,"allow_asap":1,"cu":["Mediterranean","Pizza"],"addr":"75 1st St, San Francisco, CA","full_addr":{"addr":"75 1st St","addr2":"","city":"San Francisco","state":"CA","postal_code":"94105-2536"},"city":"San Francisco","latitude":37.790191,"longitude":-122.39789,"del":30,"mino":30,"is_delivering":1},{"id":28329,"na":"Urban Curry","cs_phone":"415-677-9743","rds_info":{"id":186,"name":"delivery.com","logo":""},"services":{"deliver":{"time":30,"mino":25,"can":1}},"allow_tip":1,"allow_asap":1,"cu":["Indian"],"addr":"523 Broadway, San Francisco, CA","full_addr":{"addr":"523 Broadway","addr2":"","city":"San Francisco","state":"CA","postal_code":"94133-4506"},"city":"San Francisco","latitude":37.797956,"longitude":-122.405837,"del":30,"mino":25,"is_delivering":1},{"id":28330,"na":"Pakwan","cs_phone":"415-776-0160","rds_info":{"id":186,"name":"delivery.com","logo":""},"services":{"deliver":{"time":30,"mino":20,"can":1}},"allow_tip":1,"allow_asap":1,"cu":["Indian","Kosher"],"addr":"501 Ofarrell St, San Francisco, CA","full_addr":{"addr":"501 Ofarrell St","addr2":"","city":"San Francisco","state":"CA","postal_code":"94102-1931"},"city":"San Francisco","latitude":37.785714,"longitude":-122.413848,"del":30,"mino":20,"is_delivering":1},{"id":28331,"na":"Pizzeria Supremo","cs_phone":"415-922-3003","rds_info":{"id":186,"name":"delivery.com","logo":""},"services":{"deliver":{"time":30,"mino":15,"can":1}},"allow_tip":1,"allow_asap":1,"cu":["Ice Cream","Italian","Pizza","Sandwiches"],"addr":"491 Ofarrell St, San Francisco, CA","full_addr":{"addr":"491 Ofarrell St","addr2":"","city":"San Francisco","state":"CA","postal_code":"94102-2009"},"city":"San Francisco","latitude":37.785915,"longitude":-122.412255,"del":30,"mino":15,"is_delivering":1},{"id":28332,"na":"Gateway Croissant","cs_phone":"415-749-0202","rds_info":{"id":186,"name":"delivery.com","logo":""},"services":{"deliver":{"time":30,"mino":50,"can":1}},"allow_tip":1,"allow_asap":1,"cu":["Coffee House","Ice Cream","Sandwiches"],"addr":"390 Golden Gate Ave, San Francisco, CA","full_addr":{"addr":"390 Golden Gate Ave","addr2":"","city":"San Francisco","state":"CA","postal_code":"94102-3609"},"city":"San Francisco","latitude":37.781568,"longitude":-122.416357,"del":30,"mino":50,"is_delivering":1},{"id":28351,"na":"Pizza Royal","cs_phone":"415-433-3311","rds_info":{"id":186,"name":"delivery.com","logo":""},"services":{"deliver":{"time":30,"mino":15,"can":1}},"allow_tip":1,"allow_asap":1,"cu":["Italian","Pizza"],"addr":"464 Broadway, San Francisco, CA","full_addr":{"addr":"464 Broadway","addr2":"","city":"San Francisco","state":"CA","postal_code":"94133-4515"},"city":"San Francisco","latitude":37.798136,"longitude":-122.404754,"del":30,"mino":15,"is_delivering":1},{"id":28352,"na":"The Original Front Room","cs_phone":"415-771-1591","rds_info":{"id":186,"name":"delivery.com","logo":""},"services":{"deliver":{"time":30,"mino":15,"can":0}},"allow_tip":1,"allow_asap":1,"cu":["Burgers","Pizza","Brazilian"],"addr":"1550 California St, San Francisco, CA","full_addr":{"addr":"1550 California St","addr2":"","city":"San Francisco","state":"CA","postal_code":"94109-4708"},"city":"San Francisco","latitude":37.790831,"longitude":-122.41992,"del":30,"mino":15,"is_delivering":0},{"id":28353,"na":"Taqueria Mana","cs_phone":"415-421-3781","rds_info":{"id":186,"name":"delivery.com","logo":""},"services":{"deliver":{"time":30,"mino":25,"can":1}},"allow_tip":1,"allow_asap":1,"cu":["Mexican"],"addr":"439 Stockton St, San Francisco, CA","full_addr":{"addr":"439 Stockton St","addr2":"","city":"San Francisco","state":"CA","postal_code":"94108-3608"},"city":"San Francisco","latitude":37.789649,"longitude":-122.407023,"del":30,"mino":25,"is_delivering":1},{"id":28399,"na":"Sorrento Catering","cs_phone":"415-357-1122","rds_info":{"id":186,"name":"delivery.com","logo":""},"services":{"deliver":{"time":30,"mino":30,"can":1}},"allow_tip":1,"allow_asap":1,"cu":["Ice Cream","Mediterranean","Pizza"],"addr":"50 Fremont St, San Francisco, CA","full_addr":{"addr":"50 Fremont St","addr2":"","city":"San Francisco","state":"CA","postal_code":"94105-2229"},"city":"San Francisco","latitude":37.791032,"longitude":-122.39764,"del":30,"mino":30,"is_delivering":1},{"id":28585,"na":"Blessed Garden","cs_phone":"510-444-2991","rds_info":{"id":186,"name":"delivery.com","logo":""},"services":{"deliver":{"time":30,"mino":18,"can":1}},"allow_tip":1,"allow_asap":1,"cu":["Chinese"],"addr":"1428 San Pablo Ave, Berkeley, CA","full_addr":{"addr":"1428 San Pablo Ave","addr2":"","city":"Berkeley","state":"CA","postal_code":"94702-1024"},"city":"Berkeley","latitude":37.878078,"longitude":-122.295119,"del":30,"mino":18,"is_delivering":1},{"id":28591,"na":"Blessed Garden","cs_phone":"510-444-2991","rds_info":{"id":186,"name":"delivery.com","logo":""},"services":{"deliver":{"time":30,"mino":18,"can":1}},"allow_tip":1,"allow_asap":1,"cu":["Chinese"],"addr":"419 15th St, Oakland, CA","full_addr":{"addr":"419 15th St","addr2":"","city":"Oakland","state":"CA","postal_code":"94612-2801"},"city":"Oakland","latitude":37.804908,"longitude":-122.269633,"del":30,"mino":18,"is_delivering":1},{"id":28622,"na":"California Pizza Kitchen","cs_phone":"510-644-3331","rds_info":{"id":186,"name":"delivery.com","logo":""},"services":{"deliver":{"time":30,"mino":200,"can":1}},"allow_tip":1,"allow_asap":1,"cu":["American"],"addr":"5614 Bay St, Emeryville, CA","full_addr":{"addr":"5614 Bay St","addr2":"","city":"Emeryville","state":"CA","postal_code":"94608-2408"},"city":"Emeryville","latitude":37.833509,"longitude":-122.29249,"del":30,"mino":200,"is_delivering":1},{"id":28623,"na":"Buckhorn Grill","cs_phone":"510-644-3331","rds_info":{"id":186,"name":"delivery.com","logo":""},"services":{"deliver":{"time":30,"mino":200,"can":1}},"allow_tip":1,"allow_asap":1,"cu":["American"],"addr":"5614 Bay St, Emeryville, CA","full_addr":{"addr":"5614 Bay St","addr2":"","city":"Emeryville","state":"CA","postal_code":"94608-2408"},"city":"Emeryville","latitude":37.833509,"longitude":-122.29249,"del":30,"mino":200,"is_delivering":1},{"id":28725,"na":"SBC Pizza Deli","cs_phone":"415-278-9756","rds_info":{"id":186,"name":"delivery.com","logo":""},"services":{"deliver":{"time":30,"mino":15,"can":1}},"allow_tip":1,"allow_asap":1,"cu":["Italian","Pizza","Sandwiches","Cheesesteaks"],"addr":"737 3rd St, San Francisco, CA","full_addr":{"addr":"737 3rd St","addr2":"","city":"San Francisco","state":"CA","postal_code":"94107-1903"},"city":"San Francisco","latitude":37.778515,"longitude":-122.392324,"del":30,"mino":15,"is_delivering":1},{"id":28853,"na":"Cako Japantown","cs_phone":"415-895-2256","rds_info":{"id":186,"name":"delivery.com","logo":""},"services":{"deliver":{"time":45,"mino":75,"can":1}},"allow_tip":1,"allow_asap":1,"addr":"1737 Post St, San Francisco, CA","full_addr":{"addr":"1737 Post St","addr2":"","city":"San Francisco","state":"CA","postal_code":"94115-3605"},"city":"San Francisco","latitude":37.78551,"longitude":-122.43036,"del":45,"mino":75,"is_delivering":1},{"id":28855,"na":"Cako Union Square","cs_phone":"415-895-2256","rds_info":{"id":186,"name":"delivery.com","logo":""},"services":{"deliver":{"time":45,"mino":20,"can":1}},"allow_tip":1,"allow_asap":1,"addr":"211 Ofarrell St, San Francisco, CA","full_addr":{"addr":"211 Ofarrell St","addr2":"","city":"San Francisco","state":"CA","postal_code":"94102-2118"},"city":"San Francisco","latitude":37.786361,"longitude":-122.408549,"del":45,"mino":20,"is_delivering":1},{"id":28856,"na":"Cako SFC","cs_phone":"415-895-2256","rds_info":{"id":186,"name":"delivery.com","logo":""},"services":{"deliver":{"time":45,"mino":40,"can":1}},"allow_tip":1,"allow_asap":1,"addr":"865 Market St, San Francisco, CA","full_addr":{"addr":"865 Market St","addr2":"","city":"San Francisco","state":"CA","postal_code":"94102"},"city":"San Francisco","latitude":37.784284,"longitude":-122.40762,"del":45,"mino":40,"is_delivering":1},{"id":28857,"na":"Cako Metreon","cs_phone":"415-895-2256","rds_info":{"id":186,"name":"delivery.com","logo":""},"services":{"deliver":{"time":45,"mino":20,"can":1}},"allow_tip":1,"allow_asap":1,"addr":"135 4th St, San Francisco, CA","full_addr":{"addr":"135 4th St","addr2":"","city":"San Francisco","state":"CA","postal_code":"94103-3003"},"city":"San Francisco","latitude":37.783865,"longitude":-122.403457,"del":45,"mino":20,"is_delivering":1},{"id":29028,"na":"Burmese Kitchen","cs_phone":"415-474-5569","rds_info":{"id":186,"name":"delivery.com","logo":""},"services":{"deliver":{"time":30,"mino":25,"can":1}},"allow_tip":1,"allow_asap":1,"cu":["Asian"],"addr":"452 Larkin St, San Francisco, CA","full_addr":{"addr":"452 Larkin St","addr2":"","city":"San Francisco","state":"CA","postal_code":"94102-3607"},"city":"San Francisco","latitude":37.781928,"longitude":-122.41725,"del":30,"mino":25,"is_delivering":1},{"id":29032,"na":"Jade Cafe #2","cs_phone":"415-552-3899","rds_info":{"id":186,"name":"delivery.com","logo":""},"services":{"deliver":{"time":30,"mino":15,"can":1}},"allow_tip":1,"allow_asap":1,"cu":["Chinese"],"addr":"1688 Bryant St, San Francisco, CA","full_addr":{"addr":"1688 Bryant St","addr2":"","city":"San Francisco","state":"CA","postal_code":"94103-4809"},"city":"San Francisco","latitude":37.766254,"longitude":-122.410552,"del":30,"mino":15,"is_delivering":1},{"id":29098,"na":"Ho's Chinese Delivery","cs_phone":"415-776-4666","rds_info":{"id":186,"name":"delivery.com","logo":""},"services":{"deliver":{"time":30,"mino":15,"can":1}},"allow_tip":1,"allow_asap":1,"cu":["Chinese"],"addr":"2360 Van Ness Ave, San Francisco, CA","full_addr":{"addr":"2360 Van Ness Ave","addr2":"","city":"San Francisco","state":"CA","postal_code":"94109-1824"},"city":"San Francisco","latitude":37.797279,"longitude":-122.423634,"del":30,"mino":15,"is_delivering":1},{"id":29161,"na":"Oceanic Restaurant","cs_phone":"415-255-1245","rds_info":{"id":186,"name":"delivery.com","logo":""},"services":{"deliver":{"time":30,"mino":15,"can":1}},"allow_tip":1,"allow_asap":1,"cu":["Chinese"],"addr":"101 Utah St, San Francisco, CA","full_addr":{"addr":"101 Utah St","addr2":"","city":"San Francisco","state":"CA","postal_code":"94103-4804"},"city":"San Francisco","latitude":37.767778,"longitude":-122.406724,"del":30,"mino":15,"is_delivering":1},{"id":29290,"na":"Machine Cafe","cs_phone":"415-913-7370","rds_info":{"id":186,"name":"delivery.com","logo":""},"services":{"deliver":{"time":30,"mino":20,"can":1}},"allow_tip":1,"allow_asap":1,"cu":["Sandwiches"],"addr":"2024 Market St, San Francisco, CA","full_addr":{"addr":"2024 Market St","addr2":"","city":"San Francisco","state":"CA","postal_code":"94114-1314"},"city":"San Francisco","latitude":37.768369,"longitude":-122.427991,"del":30,"mino":20,"is_delivering":1},{"id":29383,"na":"Mehfil","cs_phone":"415-896-9000","rds_info":{"id":186,"name":"delivery.com","logo":""},"services":{"deliver":{"time":30,"mino":20,"can":1}},"allow_tip":1,"allow_asap":1,"cu":["Indian"],"addr":"28 2nd St, San Francisco, CA","full_addr":{"addr":"28 2nd St","addr2":"","city":"San Francisco","state":"CA","postal_code":"94105-3406"},"city":"San Francisco","latitude":37.788877,"longitude":-122.40106,"del":30,"mino":20,"is_delivering":1},{"id":29485,"na":"Kaka Udon Kitchen","cs_phone":"415-577-2380","rds_info":{"id":186,"name":"delivery.com","logo":""},"services":{"deliver":{"time":30,"mino":20,"can":1}},"allow_tip":1,"allow_asap":1,"cu":["Sushi"],"addr":"1535 Franklin St, San Francisco, CA","full_addr":{"addr":"1535 Franklin St","addr2":"","city":"San Francisco","state":"CA","postal_code":"94109-4564"},"city":"San Francisco","latitude":37.788959,"longitude":-122.423759,"del":30,"mino":20,"is_delivering":1},{"id":29551,"na":"Royalty Pizza","cs_phone":"415-776-9999","rds_info":{"id":186,"name":"delivery.com","logo":""},"services":{"deliver":{"time":30,"mino":10,"can":1}},"allow_tip":1,"allow_asap":1,"addr":"829 Geary St, San Francisco, CA","full_addr":{"addr":"829 Geary St","addr2":"","city":"San Francisco","state":"CA","postal_code":"94109-7217"},"city":"San Francisco","latitude":37.786195,"longitude":-122.417267,"del":30,"mino":10,"is_delivering":1},{"id":29693,"na":"Sushi Umi","cs_phone":"415-834-9898","rds_info":{"id":186,"name":"delivery.com","logo":""},"services":{"deliver":{"time":30,"mino":25,"can":1}},"allow_tip":1,"allow_asap":1,"cu":["Sushi"],"addr":"132 Bush St, San Francisco, CA","full_addr":{"addr":"132 Bush St","addr2":"","city":"San Francisco","state":"CA","postal_code":"94104-3801"},"city":"San Francisco","latitude":37.791257,"longitude":-122.400201,"del":30,"mino":25,"is_delivering":1},{"id":29694,"na":"Chico's Pizza","cs_phone":"415-255-1111","rds_info":{"id":186,"name":"delivery.com","logo":""},"services":{"deliver":{"time":30,"mino":10,"can":1}},"allow_tip":1,"allow_asap":1,"cu":["Italian","Pizza"],"addr":"131 6th St, San Francisco, CA","full_addr":{"addr":"131 6th St","addr2":"","city":"San Francisco","state":"CA","postal_code":"94103-2814"},"city":"San Francisco","latitude":37.780742,"longitude":-122.408414,"del":30,"mino":10,"is_delivering":1},{"id":29696,"na":"Zaoh","cs_phone":"415-431-3930","rds_info":{"id":186,"name":"delivery.com","logo":""},"services":{"deliver":{"time":30,"mino":15,"can":1}},"allow_tip":1,"allow_asap":1,"cu":["Sushi"],"addr":"1555 Mission St, San Francisco, CA","full_addr":{"addr":"1555 Mission St","addr2":"","city":"San Francisco","state":"CA","postal_code":"94103-2543"},"city":"San Francisco","latitude":37.773195,"longitude":-122.418291,"del":30,"mino":15,"is_delivering":1},{"id":29746,"na":"SF Pizza","cs_phone":"415-431-0800","rds_info":{"id":186,"name":"delivery.com","logo":""},"services":{"deliver":{"time":30,"mino":15,"can":1}},"allow_tip":1,"allow_asap":1,"cu":["Italian","Pizza"],"addr":"1270 Mission St, San Francisco, CA","full_addr":{"addr":"1270 Mission St","addr2":"","city":"San Francisco","state":"CA","postal_code":"94103-2722"},"city":"San Francisco","latitude":37.776481,"longitude":-122.41441,"del":30,"mino":15,"is_delivering":1},{"id":29748,"na":"Family Garden","cs_phone":"415-621-1628","rds_info":{"id":186,"name":"delivery.com","logo":""},"services":{"deliver":{"time":30,"mino":15,"can":1}},"allow_tip":1,"allow_asap":1,"cu":["Chinese"],"addr":"167 11th St, San Francisco, CA","full_addr":{"addr":"167 11th St","addr2":"","city":"San Francisco","state":"CA","postal_code":"94103-2534"},"city":"San Francisco","latitude":37.773712,"longitude":-122.416326,"del":30,"mino":15,"is_delivering":1},{"id":29765,"na":"Helmand Palace","cs_phone":"415-345-0072","rds_info":{"id":186,"name":"delivery.com","logo":""},"services":{"deliver":{"time":30,"mino":20,"can":0}},"allow_tip":1,"allow_asap":1,"cu":["Middle Eastern"],"addr":"2424 Van Ness Ave, San Francisco, CA","full_addr":{"addr":"2424 Van Ness Ave","addr2":"","city":"San Francisco","state":"CA","postal_code":"94109-1826"},"city":"San Francisco","latitude":37.798155,"longitude":-122.4237,"del":30,"mino":20,"is_delivering":0},{"id":29766,"na":"Sushi Delight","cs_phone":"415-621-3622","rds_info":{"id":186,"name":"delivery.com","logo":""},"services":{"deliver":{"time":30,"mino":20,"can":0}},"allow_tip":1,"allow_asap":1,"cu":["Sushi"],"addr":"1946 Market St, San Francisco, CA","full_addr":{"addr":"1946 Market St","addr2":"","city":"San Francisco","state":"CA","postal_code":"94102-6228"},"city":"San Francisco","latitude":37.770314,"longitude":-122.425532,"del":30,"mino":20,"is_delivering":0},{"id":29796,"na":"Ithai Bangkok Street Food","cs_phone":"415-345-9999","rds_info":{"id":186,"name":"delivery.com","logo":""},"services":{"deliver":{"time":30,"mino":20,"can":1}},"allow_tip":1,"allow_asap":1,"cu":["Thai"],"addr":"720 Post St, San Francisco, CA","full_addr":{"addr":"720 Post St","addr2":"","city":"San Francisco","state":"CA","postal_code":"94109-6106"},"city":"San Francisco","latitude":37.787561,"longitude":-122.414198,"del":30,"mino":20,"is_delivering":1},{"id":29846,"na":"Milan Pizza","cs_phone":"415-674-1011","rds_info":{"id":186,"name":"delivery.com","logo":""},"services":{"deliver":{"time":30,"mino":10,"can":1}},"allow_tip":1,"allow_asap":1,"cu":["Italian","Pizza"],"addr":"606 Geary St, San Francisco, CA","full_addr":{"addr":"606 Geary St","addr2":"","city":"San Francisco","state":"CA","postal_code":"94102-1647"},"city":"San Francisco","latitude":37.786635,"longitude":-122.41401,"del":30,"mino":10,"is_delivering":1},{"id":29916,"na":"Gajalee","cs_phone":"415-552-9000","rds_info":{"id":186,"name":"delivery.com","logo":""},"services":{"deliver":{"time":30,"mino":20,"can":1}},"allow_tip":1,"allow_asap":1,"cu":["Indian"],"addr":"525 Valencia St, San Francisco, CA","full_addr":{"addr":"525 Valencia St","addr2":"","city":"San Francisco","state":"CA","postal_code":"94110-1114"},"city":"San Francisco","latitude":37.76411,"longitude":-122.421808,"del":30,"mino":20,"is_delivering":1},{"id":29954,"na":"Ithai Bangkok Street Food Catering","cs_phone":"415-345-9999","rds_info":{"id":186,"name":"delivery.com","logo":""},"services":{"deliver":{"time":1425,"mino":20,"can":1}},"allow_tip":1,"allow_asap":1,"cu":["Thai"],"addr":"720 Post St, San Francisco, CA","full_addr":{"addr":"720 Post St","addr2":"","city":"San Francisco","state":"CA","postal_code":"94109-6106"},"city":"San Francisco","latitude":37.787561,"longitude":-122.414198,"del":1425,"mino":20,"is_delivering":1},{"id":30219,"na":"Wok and Go","cs_phone":"415-642-4313","rds_info":{"id":186,"name":"delivery.com","logo":""},"services":{"deliver":{"time":30,"mino":20,"can":1}},"allow_tip":1,"allow_asap":1,"cu":["Chinese"],"addr":"2700 24th St, San Francisco, CA","full_addr":{"addr":"2700 24th St","addr2":"","city":"San Francisco","state":"CA","postal_code":"94110-4212"},"city":"San Francisco","latitude":37.752975,"longitude":-122.40686,"del":30,"mino":20,"is_delivering":1},{"id":30221,"na":"Pharaohs Mediterranean Sandwiches","cs_phone":"415-292-7271","rds_info":{"id":186,"name":"delivery.com","logo":""},"services":{"deliver":{"time":30,"mino":12,"can":1}},"allow_tip":1,"allow_asap":1,"cu":["Mediterranean"],"addr":"608 Geary St, San Francisco, CA","full_addr":{"addr":"608 Geary St","addr2":"","city":"San Francisco","state":"CA","postal_code":"94102-1647"},"city":"San Francisco","latitude":37.78667,"longitude":-122.414039,"del":30,"mino":12,"is_delivering":1},{"id":30282,"na":"Sushi Rapture","cs_phone":"415-359-1388","rds_info":{"id":186,"name":"delivery.com","logo":""},"services":{"deliver":{"time":30,"mino":25,"can":1}},"allow_tip":1,"allow_asap":1,"addr":"1400 Leavenworth St, San Francisco, CA","full_addr":{"addr":"1400 Leavenworth St","addr2":"","city":"San Francisco","state":"CA","postal_code":"94109-3218"},"city":"San Francisco","latitude":37.794371,"longitude":-122.4163,"del":30,"mino":25,"is_delivering":1},{"id":30307,"na":"Million Thai Restaurant","cs_phone":"415-525-4090","rds_info":{"id":186,"name":"delivery.com","logo":""},"services":{"deliver":{"time":30,"mino":20,"can":1}},"allow_tip":1,"allow_asap":1,"cu":["Thai"],"addr":"385 Taylor St, San Francisco, CA","full_addr":{"addr":"385 Taylor St","addr2":"","city":"San Francisco","state":"CA","postal_code":"94102-2004"},"city":"San Francisco","latitude":37.785554,"longitude":-122.411256,"del":30,"mino":20,"is_delivering":1},{"id":30410,"na":"Los Yaquis","cs_phone":"415-252-8204","rds_info":{"id":186,"name":"delivery.com","logo":""},"services":{"deliver":{"time":30,"mino":35,"can":1}},"allow_tip":1,"allow_asap":1,"cu":["Spanish"],"addr":"324 S Van Ness Ave, San Francisco, CA","full_addr":{"addr":"324 S Van Ness Ave","addr2":"","city":"San Francisco","state":"CA","postal_code":"94103-3628"},"city":"San Francisco","latitude":37.767593,"longitude":-122.417734,"del":30,"mino":35,"is_delivering":1},{"id":30413,"na":"P.F. Chang's","cs_phone":"510-644-3331","rds_info":{"id":186,"name":"delivery.com","logo":""},"services":{"deliver":{"time":30,"mino":200,"can":1}},"allow_tip":1,"allow_asap":1,"cu":["Chinese"],"addr":"5633 Bay St, Emeryville, CA","full_addr":{"addr":"5633 Bay St","addr2":"","city":"Emeryville","state":"CA","postal_code":"94608-2407"},"city":"Emeryville","latitude":37.835146,"longitude":-122.292294,"del":30,"mino":200,"is_delivering":1},{"id":30414,"na":"La Mediterranee","cs_phone":"510-644-3331","rds_info":{"id":186,"name":"delivery.com","logo":""},"services":{"deliver":{"time":30,"mino":200,"can":1}},"allow_tip":1,"allow_asap":1,"cu":["Mediterranean"],"addr":"2936 College Ave, Berkeley, CA","full_addr":{"addr":"2936 College Ave","addr2":"","city":"Berkeley","state":"CA","postal_code":"94705-2204"},"city":"Berkeley","latitude":37.857796,"longitude":-122.253139,"del":30,"mino":200,"is_delivering":1},{"id":30415,"na":"Siam Bay","cs_phone":"510-644-3331","rds_info":{"id":186,"name":"delivery.com","logo":""},"services":{"deliver":{"time":30,"mino":200,"can":1}},"allow_tip":1,"allow_asap":1,"cu":["Thai"],"addr":"1009 Clay St, Oakland, CA","full_addr":{"addr":"1009 Clay St","addr2":"","city":"Oakland","state":"CA","postal_code":"94607-4025"},"city":"Oakland","latitude":37.802871,"longitude":-122.275119,"del":30,"mino":200,"is_delivering":1},{"id":30416,"na":"Chevy's","cs_phone":"510-644-3331","rds_info":{"id":186,"name":"delivery.com","logo":""},"services":{"deliver":{"time":30,"mino":200,"can":1}},"allow_tip":1,"allow_asap":1,"cu":["Mexican"],"addr":"1890 Powell St, Emeryville, CA","full_addr":{"addr":"1890 Powell St","addr2":"","city":"Emeryville","state":"CA","postal_code":"94608-1808"},"city":"Emeryville","latitude":37.837687,"longitude":-122.298551,"del":30,"mino":200,"is_delivering":1},{"id":30417,"na":"Rubio's","cs_phone":"510-644-3331","rds_info":{"id":186,"name":"delivery.com","logo":""},"services":{"deliver":{"time":30,"mino":200,"can":1}},"allow_tip":1,"allow_asap":1,"cu":["Mexican"],"addr":"5614 Bay St, Emeryville, CA","full_addr":{"addr":"5614 Bay St","addr2":"","city":"Emeryville","state":"CA","postal_code":"94608-2408"},"city":"Emeryville","latitude":37.833509,"longitude":-122.29249,"del":30,"mino":200,"is_delivering":1},{"id":30418,"na":"Daphne's California Greek","cs_phone":"510-644-3331","rds_info":{"id":186,"name":"delivery.com","logo":""},"services":{"deliver":{"time":30,"mino":200,"can":1}},"allow_tip":1,"allow_asap":1,"cu":["Greek"],"addr":"2308 S Shore Ctr, Alameda, CA","full_addr":{"addr":"2308 S Shore Ctr","addr2":"","city":"Alameda","state":"CA","postal_code":"94501-5760"},"city":"Alameda","latitude":37.759962,"longitude":-122.25234,"del":30,"mino":200,"is_delivering":1},{"id":30457,"na":"Preet Palace","cs_phone":"415-674-1301","rds_info":{"id":186,"name":"delivery.com","logo":""},"services":{"deliver":{"time":30,"mino":20,"can":1}},"allow_tip":1,"allow_asap":1,"cu":["Burgers","Indian","Pizza","Sandwiches"],"addr":"1109 Fillmore St, San Francisco, CA","full_addr":{"addr":"1109 Fillmore St","addr2":"","city":"San Francisco","state":"CA","postal_code":"94115-4711"},"city":"San Francisco","latitude":37.780081,"longitude":-122.43209,"del":30,"mino":20,"is_delivering":1},{"id":30516,"na":"S.F. Da Vinci's Pizza","cs_phone":"415-922-3002","rds_info":{"id":186,"name":"delivery.com","logo":""},"services":{"deliver":{"time":30,"mino":12.99,"can":1}},"allow_tip":1,"allow_asap":1,"cu":["Italian","Pizza","Sandwiches"],"addr":"87 6th St, San Francisco, CA","full_addr":{"addr":"87 6th St","addr2":"","city":"San Francisco","state":"CA","postal_code":"94103-1610"},"city":"San Francisco","latitude":37.781182,"longitude":-122.408963,"del":30,"mino":12.99,"is_delivering":1},{"id":30966,"na":"Straw","cs_phone":"415-431-3663","rds_info":{"id":186,"name":"delivery.com","logo":""},"services":{"deliver":{"time":30,"mino":18,"can":1}},"allow_tip":1,"allow_asap":1,"cu":["American"],"addr":"203 Octavia St, San Francisco, CA","full_addr":{"addr":"203 Octavia St","addr2":"","city":"San Francisco","state":"CA","postal_code":"94102-5813"},"city":"San Francisco","latitude":37.774119,"longitude":-122.424181,"del":30,"mino":18,"is_delivering":1},{"id":31030,"na":"Davan Thai Cuisine","cs_phone":"510-644-3331","rds_info":{"id":186,"name":"delivery.com","logo":""},"services":{"deliver":{"time":30,"mino":200,"can":1}},"allow_tip":1,"allow_asap":1,"cu":["Thai"],"addr":"1803 Webster St, Oakland, CA","full_addr":{"addr":"1803 Webster St","addr2":"","city":"Oakland","state":"CA","postal_code":"94612-3413"},"city":"Oakland","latitude":37.80658,"longitude":-122.26681,"del":30,"mino":200,"is_delivering":1},{"id":31031,"na":"Edoko","cs_phone":"510-644-3331","rds_info":{"id":186,"name":"delivery.com","logo":""},"services":{"deliver":{"time":30,"mino":200,"can":1}},"allow_tip":1,"allow_asap":1,"cu":["Sushi"],"addr":"1722 University Ave, Berkeley, CA","full_addr":{"addr":"1722 University Ave","addr2":"","city":"Berkeley","state":"CA","postal_code":"94703-1514"},"city":"Berkeley","latitude":37.871052,"longitude":-122.276377,"del":30,"mino":200,"is_delivering":1},{"id":31032,"na":"Nanayiro","cs_phone":"510-644-3331","rds_info":{"id":186,"name":"delivery.com","logo":""},"services":{"deliver":{"time":30,"mino":200,"can":1}},"allow_tip":1,"allow_asap":1,"cu":["Sushi"],"addr":"2399 Shattuck Ave, Berkeley, CA","full_addr":{"addr":"2399 Shattuck Ave","addr2":"","city":"Berkeley","state":"CA","postal_code":"94704-1552"},"city":"Berkeley","latitude":37.866223,"longitude":-122.267544,"del":30,"mino":200,"is_delivering":1},{"id":31033,"na":"Namaste Madras Cuisine","cs_phone":"510-644-3331","rds_info":{"id":186,"name":"delivery.com","logo":""},"services":{"deliver":{"time":30,"mino":200,"can":0}},"allow_tip":1,"allow_asap":1,"cu":["Indian"],"addr":"2323 Shattuck Ave, Berkeley, CA","full_addr":{"addr":"2323 Shattuck Ave","addr2":"","city":"Berkeley","state":"CA","postal_code":"94704-1516"},"city":"Berkeley","latitude":37.867173,"longitude":-122.267648,"del":30,"mino":200,"is_delivering":0},{"id":31034,"na":"Ajanta","cs_phone":"510-644-3331","rds_info":{"id":186,"name":"delivery.com","logo":""},"services":{"deliver":{"time":30,"mino":200,"can":1}},"allow_tip":1,"allow_asap":1,"cu":["Indian"],"addr":"1888 Solano Ave, Berkeley, CA","full_addr":{"addr":"1888 Solano Ave","addr2":"","city":"Berkeley","state":"CA","postal_code":"94707-2309"},"city":"Berkeley","latitude":37.891413,"longitude":-122.277715,"del":30,"mino":200,"is_delivering":1},{"id":31063,"na":"T-Rex BBQ","cs_phone":"510-644-3331","rds_info":{"id":186,"name":"delivery.com","logo":""},"services":{"deliver":{"time":30,"mino":200,"can":1}},"allow_tip":1,"allow_asap":1,"cu":["American","Barbecue","Burgers","Sandwiches"],"addr":"1300 10th St, Berkeley, CA","full_addr":{"addr":"1300 10th St","addr2":"","city":"Berkeley","state":"CA","postal_code":"94710-1510"},"city":"Berkeley","latitude":37.879341,"longitude":-122.296746,"del":30,"mino":200,"is_delivering":1},{"id":31065,"na":"Sun Hong Kong","cs_phone":"510-644-3331","rds_info":{"id":186,"name":"delivery.com","logo":""},"services":{"deliver":{"time":30,"mino":200,"can":1}},"allow_tip":1,"allow_asap":1,"cu":["Chinese"],"addr":"2439 Durant Ave, Berkeley, CA","full_addr":{"addr":"2439 Durant Ave","addr2":"","city":"Berkeley","state":"CA","postal_code":"94704-1610"},"city":"Berkeley","latitude":37.867681,"longitude":-122.260116,"del":30,"mino":200,"is_delivering":1},{"id":31066,"na":"Wikiwiki Hawaiian BBQ","cs_phone":"510-644-3331","rds_info":{"id":186,"name":"delivery.com","logo":""},"services":{"deliver":{"time":30,"mino":200,"can":1}},"allow_tip":1,"allow_asap":1,"cu":["Hawaiian","Barbecue"],"addr":"2417 Shattuck Ave, Berkeley, CA","full_addr":{"addr":"2417 Shattuck Ave","addr2":"","city":"Berkeley","state":"CA","postal_code":"94704-2022"},"city":"Berkeley","latitude":37.865389,"longitude":-122.267446,"del":30,"mino":200,"is_delivering":1},{"id":31067,"na":"Original Pollo","cs_phone":"510-644-3331","rds_info":{"id":186,"name":"delivery.com","logo":""},"services":{"deliver":{"time":30,"mino":200,"can":1}},"allow_tip":1,"allow_asap":1,"cu":["American"],"addr":"100 Berkeley Sq, Berkeley, CA","full_addr":{"addr":"100 Berkeley Sq","addr2":"","city":"Berkeley","state":"CA","postal_code":"94704-1207"},"city":"Berkeley","latitude":37.871226,"longitude":-122.267736,"del":30,"mino":200,"is_delivering":1},{"id":31068,"na":"Solano Grill & BBQ","cs_phone":"510-644-3331","rds_info":{"id":186,"name":"delivery.com","logo":""},"services":{"deliver":{"time":30,"mino":200,"can":1}},"allow_tip":1,"allow_asap":1,"cu":["Italian"],"addr":"1888 Solano Ave, Berkeley, CA","full_addr":{"addr":"1888 Solano Ave","addr2":"","city":"Berkeley","state":"CA","postal_code":"94707-2309"},"city":"Berkeley","latitude":37.891413,"longitude":-122.277715,"del":30,"mino":200,"is_delivering":1},{"id":31089,"na":"M's Cafe","cs_phone":"415-665-1821","rds_info":{"id":186,"name":"delivery.com","logo":""},"services":{"deliver":{"time":30,"mino":15,"can":1}},"allow_tip":1,"allow_asap":1,"cu":["American","Burgers","Coffee House","Sandwiches"],"addr":"1376 9th Ave, San Francisco, CA","full_addr":{"addr":"1376 9th Ave","addr2":"","city":"San Francisco","state":"CA","postal_code":"94122-2309"},"city":"San Francisco","latitude":37.763114,"longitude":-122.46623,"del":30,"mino":15,"is_delivering":1},{"id":31122,"na":"El Gusano","cs_phone":"510-644-3331","rds_info":{"id":186,"name":"delivery.com","logo":""},"services":{"deliver":{"time":30,"mino":200,"can":1}},"allow_tip":1,"allow_asap":1,"cu":["Mexican"],"addr":"1015 Clay St, Oakland, CA","full_addr":{"addr":"1015 Clay St","addr2":"","city":"Oakland","state":"CA","postal_code":"94607-4025"},"city":"Oakland","latitude":37.802865,"longitude":-122.275128,"del":30,"mino":200,"is_delivering":1},{"id":31191,"na":"Red Chilli","cs_phone":"415-931-3529","rds_info":{"id":186,"name":"delivery.com","logo":""},"services":{"deliver":{"time":30,"mino":25,"can":1}},"allow_tip":1,"allow_asap":1,"cu":["Asian","Healthy","Indian"],"addr":"522 Jones St, San Francisco, CA","full_addr":{"addr":"522 Jones St","addr2":"","city":"San Francisco","state":"CA","postal_code":"94102-2008"},"city":"San Francisco","latitude":37.786279,"longitude":-122.413061,"del":30,"mino":25,"is_delivering":1},{"id":31606,"na":"Supreme Pizza","cs_phone":"415-437-9400","rds_info":{"id":186,"name":"delivery.com","logo":""},"services":{"deliver":{"time":30,"mino":10,"can":1}},"allow_tip":1,"allow_asap":1,"cu":["Ice Cream","Italian","Pizza"],"addr":"3348 18th St, San Francisco, CA","full_addr":{"addr":"3348 18th St","addr2":"","city":"San Francisco","state":"CA","postal_code":"94110-1905"},"city":"San Francisco","latitude":37.761954,"longitude":-122.417736,"del":30,"mino":10,"is_delivering":1},{"id":32061,"na":"Chutney","cs_phone":"415-931-5541","rds_info":{"id":186,"name":"delivery.com","logo":""},"services":{"deliver":{"time":30,"mino":50,"can":1}},"allow_tip":1,"allow_asap":1,"cu":["Indian","Kosher"],"addr":"511 Jones St, San Francisco, CA","full_addr":{"addr":"511 Jones St","addr2":"","city":"San Francisco","state":"CA","postal_code":"94102-2007"},"city":"San Francisco","latitude":37.786274,"longitude":-122.41309,"del":30,"mino":50,"is_delivering":1},{"id":32077,"na":"Oriental Restaurant Chinese and Japanese","cs_phone":"415-863-5229","rds_info":{"id":186,"name":"delivery.com","logo":""},"services":{"deliver":{"time":30,"mino":20,"can":1}},"allow_tip":1,"allow_asap":1,"cu":["Asian","Chinese"],"addr":"1063 Market St, San Francisco, CA","full_addr":{"addr":"1063 Market St","addr2":"","city":"San Francisco","state":"CA","postal_code":"94102"},"city":"San Francisco","latitude":37.78135,"longitude":-122.4114,"del":30,"mino":20,"is_delivering":1},{"id":32081,"na":"Mr. Pizza Man","cs_phone":"415-920-0260","rds_info":{"id":186,"name":"delivery.com","logo":""},"services":{"deliver":{"time":30,"mino":20,"can":1}},"allow_tip":1,"allow_asap":1,"cu":["American","Italian","Pizza","Sandwiches"],"addr":"2680 22nd St, San Francisco, CA","full_addr":{"addr":"2680 22nd St","addr2":"","city":"San Francisco","state":"CA","postal_code":"94110-3458"},"city":"San Francisco","latitude":37.756108,"longitude":-122.408098,"del":30,"mino":20,"is_delivering":1},{"id":32085,"na":"Spicy Garden","cs_phone":"415-543-2788","rds_info":{"id":186,"name":"delivery.com","logo":""},"services":{"deliver":{"time":30,"mino":20,"can":1}},"allow_tip":1,"allow_asap":1,"cu":["Chinese"],"addr":"996 Mission St, San Francisco, CA","full_addr":{"addr":"996 Mission St","addr2":"","city":"San Francisco","state":"CA","postal_code":"94103-2911"},"city":"San Francisco","latitude":37.781005,"longitude":-122.408666,"del":30,"mino":20,"is_delivering":1},{"id":32087,"na":"Caffe Moda","cs_phone":"415-255-0628","rds_info":{"id":186,"name":"delivery.com","logo":""},"services":{"deliver":{"time":60,"mino":30,"can":1}},"allow_tip":1,"allow_asap":1,"cu":["American","Healthy","Sandwiches"],"addr":"160 7th St, San Francisco, CA","full_addr":{"addr":"160 7th St","addr2":"","city":"San Francisco","state":"CA","postal_code":"94103-2833"},"city":"San Francisco","latitude":37.7793,"longitude":-122.40875,"del":60,"mino":30,"is_delivering":1},{"id":32318,"na":"Cafe Chaat","cs_phone":"415-979-9946","rds_info":{"id":186,"name":"delivery.com","logo":""},"services":{"deliver":{"time":30,"mino":25,"can":1}},"allow_tip":1,"allow_asap":1,"cu":["Indian","Kosher"],"addr":"320 3rd St, San Francisco, CA","full_addr":{"addr":"320 3rd St","addr2":"","city":"San Francisco","state":"CA","postal_code":"94107-1213"},"city":"San Francisco","latitude":37.783357,"longitude":-122.39861,"del":30,"mino":25,"is_delivering":1},{"id":32536,"na":"Sushi Rock (Pine)","cs_phone":"415-399-0882","rds_info":{"id":186,"name":"delivery.com","logo":""},"services":{"deliver":{"time":30,"mino":5,"can":0}},"allow_tip":1,"allow_asap":1,"cu":["Sushi"],"addr":"614 Pine St, San Francisco, CA","full_addr":{"addr":"614 Pine St","addr2":"","city":"San Francisco","state":"CA","postal_code":"94108-3211"},"city":"San Francisco","latitude":37.791487,"longitude":-122.406012,"del":30,"mino":5,"is_delivering":0},{"id":32548,"na":"Palio Cafe","cs_phone":"415-362-6900","rds_info":{"id":186,"name":"delivery.com","logo":""},"services":{"deliver":{"time":30,"mino":40,"can":1}},"allow_tip":1,"allow_asap":1,"cu":["Coffee House","Italian"],"addr":"505 Montgomery St, San Francisco, CA","full_addr":{"addr":"505 Montgomery St","addr2":"","city":"San Francisco","state":"CA","postal_code":"94111-2507"},"city":"San Francisco","latitude":37.795276,"longitude":-122.39966,"del":30,"mino":40,"is_delivering":1},{"id":32621,"na":"SF Room Service (Liquor)","cs_phone":"415-566-7666","rds_info":{"id":186,"name":"delivery.com","logo":""},"services":{"deliver":{"time":30,"mino":35,"can":1}},"allow_tip":1,"allow_asap":1,"addr":"900 Irving St, San Francisco, CA","full_addr":{"addr":"900 Irving St","addr2":"","city":"San Francisco","state":"CA","postal_code":"94122-2207"},"city":"San Francisco","latitude":37.76396,"longitude":-122.46791,"del":30,"mino":35,"is_delivering":1},{"id":32622,"na":"SF Room Service (Grocery)","cs_phone":"415-566-7666","rds_info":{"id":186,"name":"delivery.com","logo":""},"services":{"deliver":{"time":30,"mino":30,"can":0}},"allow_tip":1,"allow_asap":1,"addr":"900 Irving St, San Francisco, CA","full_addr":{"addr":"900 Irving St","addr2":"","city":"San Francisco","state":"CA","postal_code":"94122-2207"},"city":"San Francisco","latitude":37.76396,"longitude":-122.46791,"del":30,"mino":30,"is_delivering":0},{"id":32760,"na":"Ingleside Pizza","cs_phone":"415-584-3333","rds_info":{"id":186,"name":"delivery.com","logo":""},"services":{"deliver":{"time":30,"mino":15,"can":0}},"allow_tip":1,"allow_asap":1,"cu":["Pizza"],"addr":"4097 19th St, San Francisco, CA","full_addr":{"addr":"4097 19th St","addr2":"","city":"San Francisco","state":"CA","postal_code":"94114-2561"},"city":"San Francisco","latitude":37.75932,"longitude":-122.43429,"del":30,"mino":15,"is_delivering":0},{"id":32802,"na":"Romano's Macaroni Grill","cs_phone":"510-644-3331","rds_info":{"id":186,"name":"delivery.com","logo":""},"services":{"deliver":{"time":30,"mino":200,"can":1}},"allow_tip":1,"allow_asap":1,"cu":["Italian"],"addr":"8000 El Cerrito Plz, El Cerrito, CA","full_addr":{"addr":"8000 El Cerrito Plz","addr2":"","city":"El Cerrito","state":"CA","postal_code":"94530-4014"},"city":"El Cerrito","latitude":37.89866,"longitude":-122.30126,"del":30,"mino":200,"is_delivering":1},{"id":32871,"na":"Great Wall Chinese Restaurant","cs_phone":"510-644-3331","rds_info":{"id":186,"name":"delivery.com","logo":""},"services":{"deliver":{"time":30,"mino":200,"can":1}},"allow_tip":1,"allow_asap":1,"cu":["Chinese"],"addr":"6247 College Ave, Oakland, CA","full_addr":{"addr":"6247 College Ave","addr2":"","city":"Oakland","state":"CA","postal_code":"94618-1329"},"city":"Oakland","latitude":37.85005,"longitude":-122.25257,"del":30,"mino":200,"is_delivering":1},{"id":32899,"na":"Milan Pizza Mission","cs_phone":"415-626-6666","rds_info":{"id":186,"name":"delivery.com","logo":""},"services":{"deliver":{"time":30,"mino":15,"can":1}},"allow_tip":1,"allow_asap":1,"cu":["Pizza"],"addr":"2074 Mission St, San Francisco, CA","full_addr":{"addr":"2074 Mission St","addr2":"","city":"San Francisco","state":"CA","postal_code":"94110-1218"},"city":"San Francisco","latitude":37.764196,"longitude":-122.419598,"del":30,"mino":15,"is_delivering":1},{"id":33233,"na":"Sweet Dreams Bakery","cs_phone":"650-755-8337","rds_info":{"id":186,"name":"delivery.com","logo":""},"services":{"deliver":{"time":105,"mino":30,"can":1}},"allow_tip":1,"allow_asap":1,"cu":["Healthy","Ice Cream"],"addr":"7743 El Camino Real, Colma, CA","full_addr":{"addr":"7743 El Camino Real","addr2":"","city":"Colma","state":"CA","postal_code":"94014-3108"},"city":"Colma","latitude":37.68393,"longitude":-122.46356,"del":105,"mino":30,"is_delivering":1}]